{
    "members": [
        {
            "name": "MASP - São Paulo Museum of Art Assis Chateaubriand",
            "address": "Av. Paulista, 1578 - Bela Vista, São Paulo - SP, 01310-200",
            "phone_number": "+55 11 3149-5959",
            "url": "https://masp.org.br",
            "urldescription": "https://masp.org.br",
            "image": "https://cdn.prod.website-files.com/67338a991d8aa120d15ef8c5/68123e732bdacbe1fd12dc23_WhatsApp%20Image%202025-04-30%20at%2012.07.09%20(1).jpeg",
            "membership_level": 3,
            "business_type": "Museum",
            "hours": "Tuesday to Sunday, 10:00 AM to 6:00 PM (Thursdays until 8:00 PM)"
        },
        {
            "name": "Shopping Cidade São Paulo",
            "address": "Av. Paulista, 1230 - Bela Vista, São Paulo - SP, 01310-100",
            "phone_number": "+55 11 3595-1230",
            "url": "https://shoppingcidadesp.com.br",
            "image": "https://shoppingcidadesp.com.br/wp-content/uploads/2023/07/sobreoshopping_carrossel_01.jpg",
            "membership_level": 2,
            "business_type": "Shopping Mall",
            "hours": "Monday to Saturday, 10:00 AM to 10:00 PM; Sundays and holidays, 2:00 PM to 8:00 PM"
        },
        {
            "name": "Conjunto Nacional",
            "address": "Av. Paulista, 2073 - Consolação, São Paulo - SP, 01311-940",
            "phone_number": "+55 11 3179-7600",
            "url": "https://conjuntonacional.com.br",
            "image": "./images/conjunto-nacional.jpg",
            "membership_level": 3,
            "business_type": "Shopping/Cultural Center",
            "hours": "Monday to Saturday, 9:00 AM to 10:00 PM; Sundays and holidays, 10:00 AM to 8:00 PM"
        },
        {
            "name": "Itaú Cultural",
            "address": "Av. Paulista, 149 - Bela Vista, São Paulo - SP, 01311-000",
            "phone_number": "+55 11 2168-1777",
            "url": "https://itaucultural.org.br",
            "image": "https://www.itaucultural.org.br/header-logo.svg",
            "membership_level": 3,
            "business_type": "Cultural Center",
            "hours": "Tuesday to Saturday, 11:00 AM to 8:00 PM; Sundays and holidays, 11:00 AM to 7:00 PM"
        },
        {
            "name": "Casa das Rosas",
            "address": "Av. Paulista, 37 - Bela Vista, São Paulo - SP, 01311-000",
            "phone_number": "+55 11 3285-6986",
            "url": "https://casadasrosas.org.br",
            "image": "https://casadasrosas.org.br/wp-content/uploads/2024/10/Frame-802-1-1.jpg",
            "membership_level": 1,
            "business_type": "Cultural Space",
            "hours": "Tuesday to Saturday, 10:00 AM to 10:00 PM; Sundays and holidays, 10:00 AM to 6:00 PM"
        },
        {
            "name": "Livraria Cultura",
            "address": "Av. Paulista, 2073 - Consolação, São Paulo - SP, 01311-940",
            "phone_number": "+55 11 3170-4033",
            "url": "https://www.livrariacultura.com.br/",
            "image": "https://livrariacultura.vteximg.com.br/arquivos/wCARDCulturaPass.jpg?v=638568501488100000",
            "membership_level": 2,
            "business_type": "Bookstore",
            "hours": "Monday to Saturday, 9:00 AM to 10:00 PM; Sundays, 10:00 AM to 8:00 PM"
        },
        {
            "name": "Japan House São Paulo",
            "address": "Av. Paulista, 52 - Bela Vista, São Paulo - SP, 01310-900",
            "phone_number": "+55 11 3149-5959",
            "url": "https://japanhousesp.com.br",
            "image": "https://japanhousesp.com.br/wp-content/themes/jhsp/imagens/japan-house-sp.svg",
            "membership_level": 3,
            "business_type": "Cultural Center",
            "hours": "Tuesday to Sunday, 10:00 AM to 8:00 PM"
        }
    ]
}